City_ID,City,Lat,Lng,Max Temp,Humidity,Cloudiness,Wind Speed,Country,Date
0,adamstown,-25.066,-130.1015,17.4,88,100,3.79,PN,1693359195
1,east london,-33.0153,27.9116,18.75,31,5,2.9,ZA,1693359195
2,jwaneng,-24.6004,24.7303,8.37,66,4,3.81,BW,1693359196
3,strezhevoy,60.7333,77.5889,14.29,81,100,1.79,RU,1693359015
4,tazovsky,67.4667,78.7,8.79,71,100,5.21,RU,1693359196
5,geraldton,-28.7667,114.6,19.23,59,0,3.6,AU,1693359197
6,edinburgh of the seven seas,-37.0676,-12.3116,10.56,59,68,11.25,SH,1693359197
7,bouarfa,32.53,-1.95,21.55,25,6,4.02,MA,1693359197
8,blackmans bay,-43.0167,147.3167,13.07,79,94,1.32,AU,1693359198
9,argostolion,38.1811,20.489,26.53,48,0,7.66,GR,1693359198
10,bandarbeyla,9.4942,50.8122,26.79,66,6,11.98,SO,1693359198
11,mashhad,36.297,59.6062,22.08,49,0,2.06,IR,1693359028
12,vilyuchinsk,52.9306,158.4028,19.15,74,34,3.19,RU,1693359199
13,whitehorse,60.7161,-135.0538,25.01,34,75,6.71,CA,1693359199
14,grytviken,-54.2811,-36.5092,0.06,88,32,5.17,GS,1693359200
15,aasiaat,68.7098,-52.8699,2.32,92,53,4.91,GL,1693359200
16,nova sintra,14.8667,-24.7167,23.8,85,81,4.53,CV,1693359200
17,hawaiian paradise park,19.5933,-154.9731,28.18,76,40,5.14,US,1693359200
18,atafu village,-8.5421,-172.5159,28.43,79,22,6.86,TK,1693359201
19,yellowknife,62.456,-114.3525,23.29,69,75,4.63,CA,1693359201
20,bechar,31.6167,-2.2167,30.18,17,12,1.54,DZ,1693359201
21,razole,16.4833,81.8333,27.71,68,22,2.32,IN,1693359202
22,usogorsk,63.4106,48.6872,8.0,90,100,1.11,RU,1693359202
23,stanley,54.868,-1.6985,10.29,88,20,5.14,GB,1693359202
24,waitangi,-43.9535,-176.5597,11.01,80,94,2.24,NZ,1693359203
25,weno,7.4515,151.8468,29.97,79,100,3.6,FM,1693359203
26,newman,37.3138,-121.0208,33.13,38,0,1.79,US,1693359203
27,ust-nera,64.5667,143.2,21.92,46,58,3.71,RU,1693359204
28,pisco,-13.7,-76.2167,19.03,82,0,6.69,PE,1693359204
29,kuqa,41.7278,82.9364,24.86,28,0,1.32,CN,1693359205
30,papatowai,-46.5619,169.4708,12.95,58,1,3.14,NZ,1693359205
31,lae,-6.7221,146.9847,27.37,91,100,1.08,PG,1693358957
32,colonia,50.9333,6.95,15.54,83,20,1.03,DE,1693359205
33,kerikeri,-35.2268,173.9474,14.05,63,97,1.57,NZ,1693359206
34,bay roberts,47.5999,-53.2648,16.95,90,100,0.45,CA,1693359206
35,nampula,-15.1165,39.2666,15.28,86,9,2.65,MZ,1693359206
36,afgooye,2.1381,45.1212,23.57,84,98,6.21,SO,1693359207
37,port-aux-francais,-49.35,70.2167,0.73,79,92,20.14,TF,1693359207
38,yokadouma,3.5167,15.05,18.1,99,99,0.71,CM,1693359207
39,collie,-33.3667,116.15,12.89,62,0,3.43,AU,1693359208
40,puerto natales,-51.7236,-72.4875,0.52,94,68,1.27,CL,1693359208
41,fort bragg,35.139,-79.006,24.39,97,75,2.57,US,1693359209
42,ribeira grande,38.5167,-28.7,23.21,89,92,2.68,PT,1693359209
43,chateau-du-loir,47.6949,0.4185,14.99,77,92,3.58,FR,1693359210
44,dudinka,69.4058,86.1778,7.57,77,21,9.14,RU,1693359210
45,chonchi,-42.6128,-73.8092,5.62,92,12,2.99,CL,1693359210
46,mezica,46.5214,14.8544,14.37,99,100,1.5,SI,1693359210
47,oliver,49.1831,-119.5524,23.8,68,98,0.0,CA,1693359211
48,vernon,50.2581,-119.2691,25.97,38,99,1.54,CA,1693359211
49,i-n-salah,27.1935,2.4607,31.03,37,61,5.93,DZ,1693359211
50,chaiya,9.3862,99.1986,29.43,69,94,4.43,TH,1693359212
51,margaret river,-33.95,115.0667,12.9,56,0,3.37,AU,1693359045
52,dossor,47.5272,52.9811,14.93,50,6,5.75,KZ,1693359214
53,kristiansund,63.1115,7.732,12.36,87,100,2.06,NO,1693359214
54,puerto ayora,-0.7393,-90.3518,24.75,90,71,1.79,EC,1693359214
55,yinchuan,38.4681,106.2731,24.85,24,0,2.1,CN,1693359161
56,carbonear,47.7332,-53.2148,17.84,83,100,3.53,CA,1693359215
57,macenta,8.5435,-9.471,19.93,100,100,1.06,GN,1693359215
58,iskateley,67.6803,53.1512,8.96,79,100,3.15,RU,1693359216
59,anadyr,64.75,177.4833,12.28,66,40,4.0,RU,1693359216
60,nebbi,2.4783,31.0889,19.16,70,38,1.58,UG,1693359216
61,vila velha,-20.3297,-40.2925,21.97,95,75,1.54,BR,1693359217
62,la gi,10.6667,107.7833,28.58,77,100,5.49,VN,1693359007
63,nar'yan-mar,67.6713,53.087,9.02,79,100,3.18,RU,1693359217
64,pathein,16.7833,94.7333,27.71,81,100,1.44,MM,1693359027
65,hermanus,-34.4187,19.2345,17.11,69,2,2.22,ZA,1693359218
66,antsiranana,-12.2787,49.2917,22.09,70,25,6.55,MG,1693359218
67,mejit,10.2753,170.8646,28.4,75,100,8.72,MH,1693359219
68,ribeira brava,32.65,-17.0667,23.96,62,16,2.36,PT,1693359219
69,sandnessjoen,66.0217,12.6316,9.29,82,1,3.62,NO,1693359220
70,west island,-12.1568,96.8225,25.99,78,40,3.09,CC,1693359220
71,al mijlad,11.0333,27.7333,24.59,80,62,3.66,SD,1693359141
72,georgetown,5.4112,100.3354,27.97,78,20,4.12,MY,1693359002
73,bilibino,68.0546,166.4372,8.73,96,100,1.88,RU,1693359221
74,usoke,-5.1667,32.35,18.89,55,45,2.9,TZ,1693359221
75,hirara,24.8,125.2833,31.92,74,40,7.2,JP,1693359222
76,luwuk,-0.9516,122.7875,28.78,60,32,4.25,ID,1693359222
77,amga,60.8953,131.9608,24.55,51,0,1.77,RU,1693359223
78,enewetak,11.3474,162.3373,29.03,78,74,6.71,MH,1693359223
79,nouadhibou,20.931,-17.0347,25.99,73,36,6.17,MR,1693359223
80,cabo san lucas,22.8909,-109.9124,30.9,77,40,1.54,MX,1693359224
81,college,64.8569,-147.8028,24.48,64,75,2.06,US,1693359224
82,punta arenas,-53.15,-70.9167,3.63,88,100,1.75,CL,1693359224
83,badger,64.8,-147.5333,24.43,56,75,2.06,US,1693359225
84,askiz,53.1319,90.5264,16.9,76,100,3.3,RU,1693359225
85,karpinsk,59.7654,60.0085,10.18,68,100,5.17,RU,1693359225
86,taiyuan,37.8694,112.5603,17.92,77,0,1.0,CN,1693359159
87,constantia,44.1833,28.65,24.38,80,0,4.9,RO,1693359226
88,yeraliyev,43.2,51.65,19.23,47,0,3.81,KZ,1693359227
89,kiuruvesi,63.65,26.6167,10.41,96,100,1.73,FI,1693359227
90,port elizabeth,-33.918,25.5701,14.16,62,0,1.03,ZA,1693359228
91,bratsk,56.1325,101.6142,21.27,69,92,0.51,RU,1693359228
92,udachny,66.4167,112.4,16.36,82,100,1.65,RU,1693359228
93,talaja,21.35,72.05,26.37,69,8,1.82,IN,1693359228
94,xichang,27.8964,102.2634,15.81,93,100,0.58,CN,1693358737
95,rikaze,29.25,88.8833,14.99,47,7,1.2,CN,1693359229
96,papao,-17.75,-149.55,25.82,84,54,3.55,PF,1693359229
97,hammerfest,70.6634,23.6821,10.25,100,100,0.51,NO,1693359230
98,lebu,-37.6167,-73.65,10.17,93,100,8.54,CL,1693359230
99,selfoss,63.9331,-20.9971,10.58,93,99,2.96,IS,1693359230
100,eraan,9.0629,117.7016,30.86,61,100,5.6,PH,1693359231
101,la passe,45.5549,-0.8967,14.99,84,26,1.28,FR,1693359231
102,albany,42.6001,-73.9662,23.03,80,100,1.78,US,1693359232
103,naze,28.3667,129.4833,28.51,82,12,3.96,JP,1693358947
104,qaqortoq,60.7167,-46.0333,7.52,96,97,0.69,GL,1693359232
105,madera,37.1666,-119.8343,35.05,18,0,3.52,US,1693359233
106,pierre,44.3683,-100.351,26.03,53,0,3.09,US,1693359233
107,portland,45.5234,-122.6762,23.62,68,75,2.57,US,1693359233
108,afaahiti,-17.75,-149.2833,24.93,82,82,3.59,PF,1693359234
109,la foa,-21.7108,165.8276,20.66,88,99,2.05,NC,1693359234
110,kushtagi,15.7667,76.2,23.31,75,64,4.89,IN,1693359234
111,saint-joseph,-21.3667,55.6167,20.21,88,100,7.6,RE,1693359234
112,ushuaia,-54.8,-68.3,4.81,75,0,4.63,AR,1693358972
113,fale old settlement,-9.3852,-171.2468,28.17,79,90,7.5,TK,1693359235
114,gondar,12.6,37.4667,13.87,84,100,1.22,ET,1693359236
115,tiksi,71.6872,128.8694,9.06,79,100,4.15,RU,1693359236
116,nadym,65.5333,72.5167,10.06,69,100,3.81,RU,1693358957
117,carauari,-4.8828,-66.8958,24.7,86,100,0.96,BR,1693359237
118,plastun,44.7561,136.2939,15.82,98,100,4.11,RU,1693359237
119,urangan,-25.3,152.9,19.92,72,7,2.63,AU,1693359238
120,port mathurin,-19.6833,63.4167,22.63,74,19,5.32,MU,1693359238
121,xuddur,4.1213,43.8894,21.33,74,93,7.59,SO,1693359238
122,blythe,33.6103,-114.5964,46.25,9,20,3.6,US,1693359239
123,moree,-29.4667,149.85,23.5,37,85,6.58,AU,1693359239
124,scarborough,54.2797,-0.4044,12.76,86,2,1.34,GB,1693359239
125,el calafate,-50.3408,-72.2768,1.08,88,24,0.72,AR,1693359239
126,longyearbyen,78.2186,15.6401,5.91,87,40,4.63,SJ,1693359240
127,remire-montjoly,4.9167,-52.2667,25.02,94,0,1.03,GF,1693359240
128,saint-pierre,-21.3393,55.4781,20.82,88,75,9.77,RE,1693359240
129,sisimiut,66.9395,-53.6735,4.88,88,72,2.61,GL,1693359242
130,guadalupe,25.6833,-100.25,27.34,79,75,2.06,MX,1693359242
131,iqaluit,63.7506,-68.5145,4.85,80,40,2.57,CA,1693359176
132,petropavlovsk-kamchatsky,53.0452,158.6483,18.33,63,40,3.0,RU,1693358967
133,kita,13.0349,-9.4895,22.2,98,100,0.55,ML,1693359243
134,kroya,-7.6331,109.2461,25.84,72,76,1.53,ID,1693359243
135,kangding,30.0513,101.9603,13.08,97,100,1.18,CN,1693359243
136,namibe,-15.1961,12.1522,19.71,88,49,1.78,AO,1693359244
137,avarua,-21.2078,-159.775,23.03,56,20,3.09,CK,1693359244
138,lospalos,-8.5186,127.0025,25.57,57,97,5.92,TL,1693359245
139,oak hill,37.9723,-81.1487,21.73,93,100,0.69,US,1693359245
140,invercargill,-46.4,168.35,15.57,57,6,4.02,NZ,1693359000
141,namtsy,62.7161,129.6658,25.14,51,7,2.48,RU,1693359246
142,itoman,26.1247,127.6694,32.43,71,20,5.66,JP,1693359037
143,calingasta,-31.3308,-69.4078,11.59,11,0,1.65,AR,1693359246
144,arkhangel'sk,64.5401,40.5433,9.47,97,18,1.95,RU,1693359246
145,mezhdurechenskiy,59.6,65.9333,11.13,98,100,3.19,RU,1693359247
146,safford,32.834,-109.7076,38.51,16,0,1.54,US,1693359247
147,labrador city,52.9463,-66.9114,8.95,93,100,2.06,CA,1693359247
148,douglas,41.3,-96.167,26.49,59,0,0.0,US,1693359248
149,sitka,57.0531,-135.33,14.94,88,100,2.57,US,1693359248
150,kiunga,-6.1219,141.2906,27.59,68,98,2.3,PG,1693359248
151,sanming,26.2486,117.6186,25.93,88,96,1.7,CN,1693359249
152,makary,12.5717,14.4666,26.65,68,65,4.73,CM,1693359249
153,evron,48.1564,-0.3997,14.9,84,82,2.79,FR,1693359249
154,acapulco de juarez,16.8634,-99.8901,29.9,70,75,1.03,MX,1693358979
155,minot,48.2325,-101.2963,24.06,56,0,2.06,US,1693359250
156,heyuan,23.7333,114.6833,25.97,79,97,3.09,CN,1693359250
157,shakawe,-18.3667,21.85,11.42,43,0,2.33,BW,1693359251
158,carnarvon,-24.8667,113.6333,26.1,30,0,3.93,AU,1693359251
159,awjilah,29.1081,21.2869,28.08,50,0,5.94,LY,1693359252
160,port alfred,-33.5906,26.891,20.21,33,0,3.81,ZA,1693359252
161,gisborne,-38.6533,178.0042,13.4,52,0,3.01,NZ,1693359043
162,urucara,-2.5364,-57.76,27.02,40,9,1.07,BR,1693359252
163,ilulissat,69.2167,-51.1,5.01,93,100,2.06,GL,1693359253
164,lihue,21.9789,-159.3672,30.77,62,40,7.2,US,1693359253
165,mount isa,-20.7333,139.5,27.87,13,97,3.6,AU,1693359253
166,midvagur,62.0511,-7.1939,9.46,87,75,8.23,FO,1693359254
167,maryville,35.7565,-83.9705,24.84,96,100,2.06,US,1693359254
168,northam,51.0333,-4.2167,15.22,79,76,5.43,GB,1693359254
169,whistler,50.1164,-122.9695,13.57,94,100,1.54,CA,1693359255
170,arraial do cabo,-22.9661,-42.0278,20.4,93,100,5.61,BR,1693359255
171,axim,4.8699,-2.2405,23.96,93,99,2.57,GH,1693359256
172,olonkinbyen,70.9221,-8.7187,4.17,92,100,4.32,SJ,1693359256
173,port lincoln,-34.7333,135.8667,12.77,65,100,6.96,AU,1693359256
174,westport,41.1415,-73.3579,23.11,90,100,3.6,US,1693359257
175,kone,-21.0595,164.8658,23.94,73,88,1.54,NC,1693359257
176,bodo,67.28,14.405,13.02,85,100,6.69,NO,1693359257
177,mayo-belwa,9.05,12.05,22.62,87,100,0.53,NG,1693359258
178,alofi,-19.0595,-169.9187,25.94,53,75,7.72,NU,1693359258
179,saldanha,-33.0117,17.9442,14.03,87,1,2.73,ZA,1693359258
180,flin flon,54.7682,-101.865,19.51,66,2,3.17,CA,1693359259
181,sagua la grande,22.8067,-80.0756,24.55,80,75,4.2,CU,1693359259
182,isafjordur,66.0755,-23.124,9.26,85,100,0.89,IS,1693359259
183,ponta delgada,37.7333,-25.6667,21.4,83,20,1.54,PT,1693359259
184,usinsk,65.9939,57.5281,6.23,89,10,3.57,RU,1693359260
185,jamestown,42.097,-79.2353,17.8,94,0,3.09,US,1693359260
186,wuhu,31.3366,118.3755,21.27,94,100,2.78,CN,1693359260
187,tura,25.5198,90.2201,28.04,69,8,0.65,IN,1693359261
188,palu,-0.8917,119.8707,29.81,63,37,1.06,ID,1693358870
189,fortuna,40.5982,-124.1573,22.19,77,0,6.69,US,1693359262
190,hamilton,39.1834,-84.5333,21.65,73,0,0.0,US,1693359262
191,opuwo,-18.0607,13.84,18.85,46,9,3.93,NA,1693359010
192,mykhaylivka,47.2724,35.2224,18.29,48,0,3.58,UA,1693359263
193,plainview,40.7765,-73.4673,23.71,90,100,0.0,US,1693359263
194,turan,16.0678,108.2208,27.99,78,75,0.51,VN,1693358704
195,sola,-13.8833,167.55,24.77,88,100,4.68,VU,1693359264
196,limassol,34.675,33.0333,26.21,78,0,3.09,CY,1693359265
197,coquimbo,-29.9533,-71.3436,13.85,88,0,3.09,CL,1693359265
198,maralal,1.0968,36.698,14.16,75,90,2.92,KE,1693359265
199,cole harbour,44.6724,-63.4751,20.1,96,100,3.6,CA,1693359265
200,lerwick,60.1545,-1.1494,10.0,84,18,1.91,GB,1693359266
201,rovaniemi,66.5,25.7167,9.67,100,100,3.09,FI,1693359266
202,matias romero,16.8833,-95.0333,24.2,93,100,0.88,MX,1693359267
203,kenai,60.5544,-151.2583,12.05,97,100,4.63,US,1693359267
204,wailua homesteads,22.0669,-159.378,30.44,71,40,7.2,US,1693359268
205,kingston,17.997,-76.7936,30.53,75,20,7.2,JM,1693359268
206,susuman,62.7833,148.1667,20.77,46,35,3.38,RU,1693359268
207,kupang,-10.1667,123.5833,29.32,48,20,6.17,ID,1693359047
208,ivdel',60.6911,60.4206,10.56,67,99,4.62,RU,1693359269
209,sao vicente,-23.9631,-46.3919,19.43,26,45,0.92,BR,1693359269
210,malvan,16.0667,73.4667,25.56,85,13,1.74,IN,1693359123
211,rampachodavaram,17.45,81.7667,26.95,72,12,1.55,IN,1693359270
212,gravenhurst,44.9168,-79.3663,20.76,82,100,3.09,CA,1693359270
213,nova vicosa,-17.8919,-39.3719,23.19,92,20,1.37,BR,1693359270
214,tamanrasset,22.785,5.5228,22.95,49,0,2.06,DZ,1693359270
215,bageshwar,29.85,79.7667,21.53,75,0,0.37,IN,1693359271
216,bredasdorp,-34.5322,20.0403,17.13,48,0,2.09,ZA,1693359271
217,roxas,11.5853,122.7511,28.41,73,98,4.3,PH,1693359271
218,mil'kovo,55.6078,37.7956,15.08,95,61,0.16,RU,1693359272
219,salekhard,66.53,66.6019,8.68,80,96,4.56,RU,1693359272
220,taoudenni,22.6783,-3.9836,35.49,26,3,1.35,ML,1693359272
221,linxi,39.7,118.4333,24.58,60,6,1.74,CN,1693359273
222,yartsevo,55.0667,32.6964,14.47,98,100,2.37,RU,1693359273
223,dingcheng,32.1272,115.0394,25.93,66,97,2.9,CN,1693359273
224,al mindak,20.1588,41.2834,24.78,59,97,0.06,SA,1693359274
225,salalah,17.0151,54.0924,25.72,92,100,3.68,OM,1693359094
226,maxixe,-23.8597,35.3472,20.19,78,98,4.78,MZ,1693359274
227,nayagarh,20.1333,85.1,26.37,69,100,1.58,IN,1693359274
228,maceio,-9.6658,-35.7353,23.69,100,40,2.57,BR,1693359275
229,kalulushi,-12.8378,28.0919,13.09,51,35,2.52,ZM,1693359275
230,puerto santa,-8.9906,-78.6456,19.7,86,21,4.33,PE,1693359276
231,utrik,11.2278,169.8474,28.54,77,17,8.45,MH,1693359276
232,palikir - national government center,6.9248,158.1611,27.47,89,100,3.09,FM,1693359277
233,thompson,55.7435,-97.8558,18.09,68,75,3.09,CA,1693359277
234,pudozh,61.8099,36.5345,11.61,98,44,2.02,RU,1693359277
235,xiongzhou,25.1167,114.3,26.66,73,69,2.99,CN,1693359278
236,flying fish cove,-10.4217,105.6791,25.82,78,75,6.17,CX,1693359244
237,corumba,-19.0092,-57.6533,25.85,50,33,0.82,BR,1693359278
238,nishinoomote,30.7333,131.0,28.31,100,75,6.17,JP,1693359089
239,yaiza,28.9633,-13.7631,21.87,78,40,5.66,ES,1693359279
240,sergeyevka,53.88,67.4158,9.32,82,100,4.09,KZ,1693359279
241,touros,-5.1989,-35.4608,25.68,78,100,5.93,BR,1693359279
242,weihai,37.5017,122.1136,22.8,66,100,6.44,CN,1693359280
243,keflavik,64.0049,-22.5624,10.24,93,75,2.06,IS,1693359280
244,klyuchi,52.2667,79.1667,17.57,49,87,5.08,RU,1693359280
245,hasaki,35.7333,140.8333,35.16,78,83,5.69,JP,1693359230
246,kaa-khem,51.6833,94.7333,21.16,66,100,2.88,RU,1693359281
247,keetmanshoop,-26.5833,18.1333,17.51,59,9,3.6,NA,1693359011
248,sant lluis,39.8526,4.2594,21.22,68,0,2.06,ES,1693359281
249,arish,31.1316,33.7984,24.51,76,0,2.26,EG,1693359282
250,balsas,-7.5325,-46.0356,28.07,44,30,1.23,BR,1693359282
251,talnakh,69.4865,88.3972,7.34,61,48,1.85,RU,1693359283
252,chibougamau,49.9168,-74.3659,10.79,100,100,4.63,CA,1693359283
253,inebolu,41.9747,33.7608,23.16,62,2,2.36,TR,1693359283
254,ilula,-7.6766,36.0366,13.15,88,7,2.88,TZ,1693359284
255,north manchester,41.0006,-85.7686,20.67,93,6,5.59,US,1693359284
256,choibalsan,48.0667,114.5,19.57,45,100,4.0,MN,1693359284
257,bethel,41.3712,-73.414,22.65,85,100,1.24,US,1693359081
258,khorixas,-20.3667,14.9667,21.56,38,48,4.7,NA,1693359012
259,tyre,33.2733,35.1939,26.74,82,2,2.82,LB,1693359118
260,san patricio,28.017,-97.5169,32.88,49,99,3.02,US,1693359285
261,sur,22.5667,59.5289,28.79,71,4,1.0,OM,1693359286
262,smithers,54.7804,-127.1743,23.18,49,40,3.6,CA,1693359286
263,sainte-rose,16.3324,-61.6979,27.02,89,0,1.54,GP,1693359134
264,dwarka,22.2394,68.9678,26.4,74,100,4.51,IN,1693359286
265,luena,-11.7833,19.9167,18.1,45,100,3.6,AO,1693359287
266,la'ie,21.6477,-157.9253,30.98,68,25,4.02,US,1693359287
267,nizhniy kuranakh,58.8353,125.4869,23.01,62,7,0.56,RU,1693359287
268,olovyannaya,50.95,115.5667,22.22,29,31,5.11,RU,1693359288
269,hadibu,12.65,54.0333,26.53,81,32,8.13,YE,1693359288
270,marsh harbour,26.5412,-77.0636,29.93,79,72,5.48,BS,1693359288
271,nadi,-17.8,177.4167,27.0,61,75,7.2,FJ,1693359289
272,cadale,2.7603,46.3222,24.71,84,45,8.32,SO,1693359289
273,visby,57.6409,18.296,13.35,100,40,2.06,SE,1693359290
274,novobod,39.0108,70.1508,19.57,33,0,1.2,TJ,1693359290
275,sambava,-14.2667,50.1667,21.74,75,45,5.67,MG,1693359290
276,alice springs,-23.7,133.8833,22.75,21,0,4.63,AU,1693359291
277,callao,-12.0667,-77.15,20.95,77,75,5.66,PE,1693359291
278,tres palos,18.1833,-101.6167,24.23,95,70,1.47,MX,1693359291
279,egilsstadir,65.2653,-14.3948,5.95,87,0,1.03,IS,1693359291
280,saint-francois,46.4154,3.9054,9.69,93,20,0.0,FR,1693359292
281,port hedland,-20.3167,118.5667,31.03,11,6,5.14,AU,1693359292
282,rockland,41.1668,-74.0496,23.47,89,100,1.0,US,1693359293
283,siniscola,40.5719,9.6922,20.75,59,52,6.77,IT,1693359293
284,kosh-agach,50.0,88.6667,15.9,54,100,1.74,RU,1693359293
285,st. john's,47.5649,-52.7093,16.75,79,100,5.14,CA,1693359294
286,slavyanka,42.8633,131.3847,22.04,91,98,3.11,RU,1693359295
287,nizao,18.25,-70.2,28.04,86,100,2.76,DO,1693359295
288,la ronge,55.1001,-105.2842,23.14,60,0,3.09,CA,1693359295
289,kapit,2.0167,112.9333,30.07,71,96,0.27,MY,1693359296
290,bathsheba,13.2167,-59.5167,27.34,94,75,6.17,BB,1693359296
291,suntar,62.1444,117.6319,25.19,46,25,1.81,RU,1693359296
292,nemuro,43.3236,145.575,17.04,77,100,4.15,JP,1693359297
293,ellensburg,46.9965,-120.5479,22.07,60,75,15.43,US,1693359297
294,jiangzi,28.95,89.6333,10.16,53,4,1.58,CN,1693359298
295,uzgen,40.7699,73.3007,14.16,37,19,2.13,KG,1693359298
296,prince rupert,54.3161,-130.3201,18.05,78,100,3.09,CA,1693359299
297,chetumal,18.5,-88.3,27.44,86,100,3.76,MX,1693359299
298,orivesi,61.6777,24.3572,13.77,83,100,0.45,FI,1693359299
299,nizhneangarsk,55.7833,109.55,17.34,62,3,0.89,RU,1693359299
300,ashchysay,43.5542,68.8889,17.04,28,57,1.74,KZ,1693359300
301,san julian,21.0167,-102.1667,20.86,49,93,1.79,MX,1693359300
302,roma,43.2128,-75.4557,21.51,90,100,1.54,US,1693359301
303,gagliano del capo,39.8442,18.3695,24.36,60,0,5.14,IT,1693359010
304,merizo village,13.2658,144.6691,29.31,84,100,7.79,GU,1693359302
305,lompoc,34.6391,-120.4579,27.01,70,0,12.52,US,1693359302
306,haiku-pauwela,20.9219,-156.3051,27.92,66,28,5.36,US,1693359303
307,yeppoon,-23.1333,150.7333,23.88,59,2,4.0,AU,1693359303
308,boysun,38.2061,67.1986,21.59,22,0,2.46,UZ,1693359304
309,lorengau,-2.0226,147.2712,28.09,78,66,4.09,PG,1693359304
310,morehead city,34.7229,-76.726,28.9,86,40,3.58,US,1693359304
311,ilebo,-4.3167,20.5833,20.68,88,2,0.5,CD,1693359305
312,salym,60.0625,71.4789,12.4,88,100,3.49,RU,1693359305
313,kodiak,57.79,-152.4072,13.73,67,100,3.6,US,1693359306
314,ribeirao pires,-23.7106,-46.4133,16.35,90,87,1.16,BR,1693359306
315,saipan,15.1355,145.701,31.39,66,40,3.09,MP,1693359280
316,kasungu,-13.0333,33.4833,13.41,65,20,1.37,MW,1693359308
317,sokol,59.4617,40.1206,7.69,96,19,1.28,RU,1693359308
318,sanctuary point,-35.1114,150.629,26.1,42,89,2.51,AU,1693359309
319,tarsus,36.9188,34.8784,25.93,86,0,2.0,TR,1693359309
320,tocopilla,-22.092,-70.1979,19.2,65,0,3.67,CL,1693359310
321,pendleton,45.6721,-118.7886,23.13,45,75,15.43,US,1693359310
322,beloslav,43.1833,27.7,25.23,94,20,1.54,BG,1693359311
323,askoy,60.4092,5.226,17.08,100,100,0.0,NO,1693359311
324,konarka,19.9,86.1167,28.22,67,100,3.22,IN,1693359312
325,nuuk,64.1835,-51.7216,7.34,100,100,7.72,GL,1693359312
326,mont-dore,-22.2833,166.5833,22.22,99,100,2.85,NC,1693359313
327,kostomuksha,64.571,30.5767,9.69,96,80,2.57,RU,1693359313
328,okahandja,-21.9833,16.9167,17.25,42,57,4.51,NA,1693359314
329,malango,-2.9627,119.9001,26.09,56,12,2.1,ID,1693359314
330,naha,26.2125,127.6811,32.38,71,20,5.66,JP,1693359167
331,quellon,-43.1167,-73.6167,5.14,100,75,3.6,CL,1693359315
332,tofol,5.3248,163.0078,31.88,66,75,3.6,FM,1693359315
333,santana,-0.0583,-51.1817,28.1,78,20,3.6,BR,1693359316
334,plettenberg bay,-34.0527,23.3716,23.73,24,0,5.5,ZA,1693359316
335,magadan,59.5667,150.8,15.24,71,4,1.88,RU,1693359316
336,lagoa,39.05,-27.9833,21.99,85,97,4.09,PT,1693359317
337,mitu,1.1983,-70.1733,24.03,84,42,0.13,CO,1693359317
338,san antonio de pale,-1.4014,5.6325,23.62,91,60,5.57,GQ,1693359318
339,praia da vitoria,38.7333,-27.0667,22.09,94,20,3.09,PT,1693359318
340,saint-philippe,-21.3585,55.7679,20.77,88,100,7.59,RE,1693359319
341,odacho-oda,35.1833,132.5,30.43,64,49,2.91,JP,1693359168
342,new norfolk,-42.7826,147.0587,13.72,90,97,2.11,AU,1693359319
343,uliastay,47.7417,96.8444,20.76,33,100,1.35,MN,1693359320
344,el bauga,18.262,33.9081,32.3,34,100,3.83,SD,1693359320
345,byaroza,52.5314,24.9786,17.34,91,56,2.79,BY,1693359321
346,kundiawa,-6.0167,144.9667,25.09,53,100,1.96,PG,1693359321
347,grand-bassam,5.2118,-3.7388,24.98,94,89,2.79,CI,1693359322
348,uturoa,-16.7333,-151.4333,25.66,80,69,5.36,PF,1693359322
349,yuzhno-kurilsk,44.0306,145.8556,17.66,71,57,3.72,RU,1693359322
350,itacare,-14.2775,-38.9967,23.62,89,97,0.77,BR,1693359323
351,harstad,68.799,16.5293,12.66,93,100,4.02,NO,1693359324
352,magaria,12.9983,8.9099,28.59,60,11,3.62,NE,1693359325
353,sinabang,2.4803,96.3801,27.41,79,100,1.46,ID,1693359325
354,nagqu,31.5,92.0,8.6,70,6,1.89,CN,1693359325
355,kuruman,-27.4524,23.4325,7.77,54,9,2.61,ZA,1693359326
356,esquel,-42.9,-71.3167,3.12,95,100,2.88,AR,1693359326
357,dryden,49.7833,-92.7503,15.16,72,0,1.54,CA,1693359327
358,tan-tan,28.438,-11.1032,20.48,89,51,4.91,MA,1693359327
359,bikenibeu village,1.3673,173.1241,29.98,70,40,3.09,KI,1693359328
360,laguna,38.421,-121.4238,34.46,26,0,4.12,US,1693359328
361,promyshlennaya,54.9159,85.6385,14.53,79,0,2.71,RU,1693359328
362,ulsteinvik,62.3432,5.8487,14.31,87,98,1.34,NO,1693359329
363,verkhnevilyuysk,63.4453,120.3167,24.15,48,88,2.85,RU,1693359329
364,san clemente,33.427,-117.612,38.76,67,18,0.89,US,1693359330
365,medicine hat,50.0501,-110.6683,33.24,17,20,3.09,CA,1693359330
366,tarnogskiy gorodok,60.4997,43.5761,8.64,87,76,1.8,RU,1693359330
367,vorgashor,67.5833,63.95,6.47,90,100,2.55,RU,1693359331
368,luqiao,28.5808,121.3772,28.9,75,74,2.98,CN,1693359332
369,bardai,11.65,7.2333,22.5,90,100,3.72,NG,1693359332
370,shimanovsk,52.0,127.7,22.18,48,100,3.51,RU,1693359334
371,tortum,40.2973,41.5477,8.97,91,6,0.33,TR,1693359334
372,wewak,-3.5534,143.6268,28.74,75,99,2.14,PG,1693359334
373,camocim,-2.9022,-40.8411,24.42,89,0,4.07,BR,1693359334
374,fort-shevchenko,44.5086,50.263,20.25,50,2,6.71,KZ,1693359335
375,vadso,70.0744,29.7487,11.09,93,100,3.6,NO,1693359335
376,rundu,-17.9333,19.7667,12.55,40,0,2.72,NA,1693359336
377,hazleton,40.9584,-75.9746,20.7,85,100,0.45,US,1693359336
378,khandud,36.9513,72.318,14.81,23,0,1.02,AF,1693359337
379,bankim,6.083,11.4905,18.87,98,100,0.88,CM,1693359337
380,kavaratti,10.5669,72.642,28.2,75,100,7.37,IN,1693359337
381,yangiyer,40.275,68.8225,24.98,26,100,1.84,UZ,1693359338
382,sechura,-5.5569,-80.8222,20.83,80,0,7.46,PE,1693359338
383,turpan,42.9333,89.1667,34.04,19,100,0.91,CN,1693359339
384,posto fiscal rolim de moura,-13.0833,-62.2667,28.6,47,67,0.56,BR,1693359339
385,susaki,33.3667,133.2833,26.04,80,32,4.98,JP,1693359115
386,polyarnyy,69.1989,33.4478,10.25,92,100,3.45,RU,1693359340
387,walvis bay,-22.9575,14.5053,15.05,94,1,0.51,NA,1693359340
388,urengoy,65.9667,78.3667,9.17,90,100,4.3,RU,1693359340
389,sarina,-21.4333,149.2167,26.82,56,0,3.29,AU,1693359341
390,mahriz,31.5917,54.4318,27.28,20,0,2.31,IR,1693359342
391,serang,-6.1149,106.1502,27.96,66,100,1.86,ID,1693359168
392,amalapuram,16.5833,82.0167,28.16,65,13,1.77,IN,1693359343
393,leh,34.1667,77.5833,13.43,26,0,1.62,IN,1693359242
394,orikhiv,47.5673,35.7858,17.93,41,1,3.38,UA,1693359344
395,mukalla,14.5425,49.1242,29.16,73,33,0.78,YE,1693359344
396,hami,42.8,93.45,30.89,14,100,9.74,CN,1693359344
397,kamloops,50.6665,-120.3192,25.42,46,75,2.57,CA,1693359344
398,eldridge,41.6581,-90.5846,23.56,59,0,4.12,US,1693359345
399,howard springs,-12.497,131.047,30.49,39,33,4.29,AU,1693359345
400,swan hill,-35.3378,143.5544,17.46,48,84,5.33,AU,1693359346
401,illizi,26.4833,8.4667,30.89,27,94,1.59,DZ,1693359346
402,charters towers,-20.1,146.2667,24.94,33,5,2.52,AU,1693358927
403,burela de cabo,43.65,-7.4,17.19,84,100,2.35,ES,1693359347
404,lubuklinggau,-3.3,102.8667,26.12,75,72,0.43,ID,1693358994
405,puerto armuelles,8.2833,-82.8667,27.99,85,100,1.2,PA,1693359347
406,alaghsas,17.0187,8.0168,31.42,36,8,0.48,NE,1693359348
407,piti village,13.4626,144.6933,29.49,78,20,6.17,GU,1693359348
408,ugoofaaru,5.6667,73.0,28.13,66,100,6.04,MV,1693359348
409,palmer,42.1584,-72.3287,22.78,79,75,2.57,US,1693359349
410,hithadhoo,-0.6,73.0833,27.24,75,91,5.52,MV,1693359349
411,bilovods'k,49.2085,39.5897,13.43,41,6,1.65,UA,1693359350
412,broome,42.2506,-75.833,22.21,86,0,3.09,US,1693359350
413,colac,-38.3333,143.5833,12.87,59,27,4.92,AU,1693359351
414,masindi,1.6744,31.715,17.7,81,68,1.1,UG,1693359351
415,spassk,52.747,87.7545,14.42,91,100,4.23,RU,1693359351
416,linhares,-19.3911,-40.0722,20.81,98,33,1.73,BR,1693359352
417,taylor,32.3001,-99.8337,32.7,26,0,4.63,US,1693359352
418,guerrero negro,27.9769,-114.0611,22.69,77,9,6.37,MX,1693359352
419,banda aceh,5.5577,95.3222,29.12,68,100,4.53,ID,1693359353
420,marang,5.2056,103.2059,27.95,82,100,2.47,MY,1693359353
421,albania,41.0,20.0,20.76,69,38,1.52,AL,1693359354
422,ulladulla,-35.35,150.4667,22.97,40,87,3.63,AU,1693359288
423,cooma,-36.2333,149.1333,13.51,59,100,7.08,AU,1693359354
424,woolgoolga,-30.1106,153.2007,25.02,54,0,5.17,AU,1693359355
425,al qabil,22.571,58.6947,27.67,61,0,1.79,OM,1693359355
426,san giorgio di nogaro,45.8336,13.2158,19.03,90,100,1.03,IT,1693359355
427,najran,17.4924,44.1277,31.36,30,46,1.74,SA,1693359356
428,goz beida,13.95,20.55,23.94,77,100,8.12,TD,1693359356
429,vilyuysk,63.7553,121.6247,23.62,47,91,3.77,RU,1693359356
430,zabol,32.25,67.25,19.22,15,0,1.61,AF,1693359357
431,chahal guatemala,15.75,-89.5667,23.75,98,100,0.93,GT,1693359357
432,ulanhot,46.0833,122.0833,15.31,88,100,4.08,CN,1693359164
433,coahuayana de hidalgo,18.7,-103.6583,26.9,91,100,1.79,MX,1693359358
434,al ghayzah,16.2079,52.176,27.39,84,99,2.24,YE,1693359358
435,zhezqazghan,47.7833,67.7667,12.32,94,75,3.0,KZ,1693359358
436,poronaysk,49.2167,143.1167,17.4,70,100,2.7,RU,1693359359
437,medellin,6.2518,-75.5636,19.87,89,20,1.03,CO,1693359359
438,chenzhou,25.8,113.0333,22.12,94,100,2.33,CN,1693359341
439,salinas,36.6777,-121.6555,26.9,63,0,7.2,US,1693359359
440,santa marta,11.2408,-74.199,31.03,69,75,7.2,CO,1693359360
441,fasa,28.9383,53.6482,18.58,42,0,2.06,IR,1693359360
442,dongola,19.1667,30.4833,32.98,16,70,3.53,SD,1693359361
443,cidade velha,14.9167,-23.6167,26.26,89,75,3.09,CV,1693359362
444,mahina,-17.5065,-149.489,25.87,78,75,5.14,PF,1693359362
445,cabrero,-37.0333,-72.4,6.87,90,100,3.07,CL,1693359363
446,basco,20.4487,121.9702,27.61,87,100,21.05,PH,1693359363
447,bam,29.106,58.357,30.08,17,0,4.61,IR,1693359363
448,boa vista,2.8197,-60.6733,28.99,61,20,1.03,BR,1693359364
449,bende,5.5572,7.6368,22.64,98,100,1.35,NG,1693359364
450,suva,-18.1416,178.4415,26.71,65,75,6.17,FJ,1693359364
451,ouarzazat,30.9189,-6.8934,27.16,16,0,2.57,MA,1693359364
452,gadzhiyevo,69.2551,33.3362,10.13,91,99,3.63,RU,1693359365
453,sao bento,-6.2833,-37.75,24.22,69,6,5.1,BR,1693359365
454,grevesmuhlen,53.8667,11.1833,12.13,94,100,2.73,DE,1693359365
455,estevan,49.1334,-102.9842,25.11,47,0,3.09,CA,1693359366
456,dazhou,31.2159,107.5009,26.33,68,11,1.36,CN,1693359366
457,laojunmiao,39.8333,97.7333,20.4,27,100,3.8,CN,1693359366
458,dunedin,-45.8742,170.5036,13.37,48,9,1.66,NZ,1693359356
459,the pas,53.8251,-101.2541,19.01,77,0,3.6,CA,1693359367
460,taitung city,22.7583,121.1444,26.15,100,75,2.06,TW,1693359121
461,ancud,-41.8697,-73.8203,7.93,81,12,7.45,CL,1693359368
462,codrington,-38.2667,141.9667,11.93,77,63,6.84,AU,1693359369
463,luchegorsk,46.4764,134.2569,14.64,96,100,3.56,RU,1693359369
464,ati,13.2154,18.3353,28.28,67,100,6.09,TD,1693359370
465,new richmond,45.123,-92.5366,23.69,91,0,0.0,US,1693359370
466,trujillo,-8.116,-79.03,20.98,83,51,4.63,PE,1693359142
467,sangueya,10.7,-14.3667,23.91,94,100,0.51,GN,1693359371
468,ardestan,33.3761,52.3694,26.26,22,0,2.39,IR,1693359371
469,labytnangi,66.6572,66.4183,9.12,78,100,3.97,RU,1693359371
470,ilhabela,-23.7781,-45.3581,19.11,91,98,2.11,BR,1693359372
471,nkhotakota,-12.9274,34.2961,19.83,61,22,6.78,MW,1693359372
472,grand gaube,-20.0064,57.6608,22.22,73,13,0.89,MU,1693359372
473,moyale,3.5167,39.0584,18.91,71,99,6.75,KE,1693359373
474,cozumel,20.5083,-86.9458,29.04,89,20,3.13,MX,1693359373
475,cidreira,-30.1811,-50.2056,15.15,86,2,6.41,BR,1693359374
476,kampung simpang renggam,1.8278,103.3,27.75,76,76,1.4,MY,1693359374
477,puerto baquerizo moreno,-0.9,-89.6,24.21,77,86,4.93,EC,1693359374
478,kaifeng,34.7911,114.3483,25.94,66,0,0.12,CN,1693359374
479,inongo,-1.95,18.2667,19.47,95,86,2.05,CD,1693359375
480,umea,63.8284,20.2597,10.51,93,20,0.0,SE,1693359375
481,zhanaozen,43.3,52.8,15.45,52,0,3.08,KZ,1693359375
482,kasongo,-4.45,26.6667,23.35,40,87,0.84,CD,1693359376
483,aykhal,66.0,111.5,16.97,67,100,5.86,RU,1693359376
484,belebey,54.1167,54.1167,8.18,81,72,7.32,RU,1693359376
485,gordon,34.5004,-84.8666,26.29,83,95,1.54,US,1693359377
486,kourou,5.1552,-52.6478,25.03,84,0,3.81,GF,1693359377
487,middelburg,-25.7751,29.4648,8.29,70,0,1.27,ZA,1693359377
488,tobol,52.6844,62.5794,9.6,94,100,6.3,KZ,1693359378
489,nchelenge,-9.3451,28.734,17.8,65,8,3.37,ZM,1693359378
490,gobabis,-22.45,18.9667,14.53,39,94,5.08,NA,1693359379
491,daru,-9.0763,143.2092,26.12,64,74,5.49,PG,1693359379
492,rongelap,11.1635,166.8941,28.72,79,56,7.59,MH,1693359380
493,douentza,14.9951,-2.9517,29.4,61,4,3.6,ML,1693359380
494,aswan,24.0934,32.907,30.61,25,0,2.57,EG,1693359380
495,nyrob,60.733,56.7202,6.14,85,9,2.49,RU,1693359380
496,buka,40.8108,69.1986,23.38,31,100,0.11,UZ,1693359381
497,nyaunglebin,17.95,96.7333,26.55,87,99,0.66,MM,1693359381
498,hohhot,40.8106,111.6522,21.16,37,0,2.0,CN,1693359162
499,saint-mihiel,48.8875,5.551,13.27,79,100,1.05,FR,1693359382
500,hobyo,5.3505,48.5268,24.65,82,11,9.36,SO,1693359382
501,souillac,-20.5167,57.5167,22.21,78,40,3.09,MU,1693359382
502,tual,-5.6667,132.75,24.78,84,99,9.19,ID,1693359382
503,isabela,6.7085,121.9711,31.03,69,99,1.43,PH,1693359276
504,tamiami,25.7587,-80.3984,28.34,85,100,5.14,US,1693359383
505,tossa de mar,41.7325,2.9338,20.4,53,87,1.53,ES,1693359383
506,shagonar,51.5333,92.8,19.26,78,100,1.26,RU,1693359383
507,uvarovo,51.9849,42.2615,9.86,58,33,0.31,RU,1693359384
508,altai,46.3722,96.2583,17.48,35,100,1.29,MN,1693359384
509,bargaal,11.2864,51.0773,29.83,50,14,8.64,SO,1693359384
510,port-saint-louis-du-rhone,43.3833,4.8,19.02,59,0,8.75,FR,1693359385
511,lautoka,-17.6167,177.4667,26.92,61,75,7.2,FJ,1693359385
512,coracora,-15.0333,-73.7833,11.15,37,3,1.5,PE,1693359385
513,sao joao da barra,-21.6403,-41.0511,21.49,89,100,6.88,BR,1693359386
514,tara,56.8944,74.371,15.7,58,100,7.3,RU,1693359386
515,kavalerovo,44.2661,135.0572,16.49,99,100,1.45,RU,1693359386
516,belmonte,-15.8631,-38.8828,23.25,90,98,0.12,BR,1693359386
517,grand falls-windsor,48.9332,-55.6649,13.12,83,0,2.69,CA,1693359387
518,vorkuta,67.5,64.0,6.81,89,100,2.24,RU,1693359387
519,gao,16.6362,1.637,32.25,34,59,1.25,ML,1693359387
520,ghadamis,30.1337,9.5007,29.31,18,98,2.89,LY,1693359388
521,firuzabad,28.8438,52.5707,23.88,39,0,1.86,IR,1693359388
522,bodaybo,57.8506,114.1933,22.57,51,14,0.53,RU,1693359388
523,happy valley-goose bay,53.3168,-60.3315,21.17,46,75,5.66,CA,1693359389
524,harper,4.375,-7.7169,24.51,87,100,4.13,LR,1693359389
525,betong,5.7743,101.0723,23.25,96,100,0.7,TH,1693359097
526,mahibadhoo,3.7833,72.9667,28.3,69,100,4.78,MV,1693359389
527,sao jose da coroa grande,-8.8978,-35.1478,24.47,83,24,1.26,BR,1693359390
528,kisangani,0.5167,25.2,20.59,98,91,0.9,CD,1693359390
529,zhangye,38.9342,100.4517,26.25,21,4,0.74,CN,1693359391
530,jijiga,9.35,42.8,17.77,72,67,8.58,ET,1693359391
531,okha,53.5739,142.9478,16.02,73,100,3.87,RU,1693359392
532,talara,-4.5772,-81.2719,21.42,88,0,6.84,PE,1693359392
533,torbat-e jam,35.244,60.6225,24.44,21,42,1.52,IR,1693359392
534,lazaro cardenas,17.9583,-102.2,27.79,80,23,1.0,MX,1693359393
535,karasburg,-28.0167,18.75,17.78,45,0,3.18,NA,1693359394
536,kruisfontein,-34.0033,24.7314,19.49,17,0,5.12,ZA,1693359394
537,ambalavao,-21.8333,46.9333,11.02,85,77,2.87,MG,1693359395
538,tralee,52.2704,-9.7026,12.85,71,100,2.61,IE,1693359395
539,punta cana,18.5818,-68.4043,28.87,79,40,2.57,DO,1693359396
540,puerto escondido,15.85,-97.0667,28.46,61,75,1.03,MX,1693359396
541,queenstown,-31.8976,26.8753,12.44,24,0,3.08,ZA,1693359396
542,luderitz,-26.6481,15.1594,17.53,65,0,2.31,NA,1693359397
543,kapa'a,22.0752,-159.319,31.18,71,40,7.2,US,1693359397
544,cocal,-28.6167,-49.35,12.11,96,73,1.34,BR,1693359397
545,kuta,-8.7233,115.1723,26.97,83,75,5.81,ID,1693359398
546,borogontsy,62.6683,131.1683,24.4,50,12,2.53,RU,1693359398
547,thames,-37.1333,175.5333,14.3,53,43,0.82,NZ,1693359104
548,fuerte olimpo,-21.0415,-57.8738,25.21,49,100,2.08,PY,1693359398
549,faro,37.0194,-7.9322,23.88,46,0,6.69,PT,1693359399
550,turinsk,58.0458,63.696,11.17,96,99,3.72,RU,1693359399
551,coronel dorrego,-38.7187,-61.2873,10.63,55,59,4.75,AR,1693359400
552,an nuhud,12.7,28.4333,25.75,65,98,3.89,SD,1693359400
553,callaway,30.153,-85.5699,26.65,89,100,3.58,US,1693359400
554,dauphin,51.1494,-100.0502,17.08,77,0,2.06,CA,1693359401
555,birzebbuga,35.8258,14.5269,25.08,68,20,2.57,MT,1693359401
556,dapa,9.7594,126.0531,28.62,72,99,2.53,PH,1693359401
557,pedernales,18.0384,-71.744,29.04,73,91,2.66,DO,1693359402
558,reggane,26.7158,0.1714,33.17,31,86,3.49,DZ,1693359402
559,balabac,7.9868,117.0645,28.7,78,100,5.75,PH,1693359403
560,leua,48.2156,18.6071,15.93,97,100,0.34,SK,1693359403
561,saudarkrokur,65.7461,-19.6394,9.45,77,100,1.93,IS,1693359403
562,adiake,5.2863,-3.304,23.24,95,97,2.03,CI,1693359404
563,as sulayyil,20.4607,45.5779,30.14,17,100,7.09,SA,1693359404
564,quelimane,-17.8786,36.8883,17.58,89,100,2.18,MZ,1693359405
565,piacabucu,-10.4056,-36.4344,23.77,89,1,2.79,BR,1693359406
566,mount pearl,47.5166,-52.7813,16.29,79,100,5.14,CA,1693359406
567,port augusta,-32.5,137.7667,16.54,64,91,6.01,AU,1693359406
568,koundara,12.4833,-13.3,22.83,98,100,1.89,GN,1693359407
569,al kharijah,25.4514,30.5464,28.03,28,0,3.49,EG,1693359407
570,tsiombe,-25.3,45.4833,18.67,71,1,6.56,MG,1693359407
571,bengkulu,-3.8004,102.2655,26.43,73,92,2.36,ID,1693359408
572,qusmuryn,52.4503,64.6311,9.49,74,97,8.44,KZ,1693359408
573,funafuti,-8.5243,179.1942,33.0,75,75,5.14,TV,1693359408
